[
  {
    "name": "New Town Police Station",
    "lat": 22.579454581993136,
    "lng": 88.4789031781252
  },
  {
    "name": "Technocity Police Station",
    "lat": 22.564871517979633,
    "lng": 88.51563870949663
  },
  {
    "name": "Rajarhat Police Station",
    "lat": 22.634414216792273,
    "lng": 88.48489577388378
  },
  {
    "name": "ACP & DCP Office Bidhannagar",
    "lat": 22.588575183209247,
    "lng": 88.45192048269172
  },
  {
    "name": "Bidhannagar East Police Station",
    "lat": 22.59080236743551,
    "lng": 88.43221332772964
  },
  {
    "name": "New Town Police Station",
    "lat": 22.581251276097326,
    "lng": 88.47851715103796
  },
  {
    "name": "Bidhannagar North Police Station",
    "lat": 22.597396782022265,
    "lng": 88.4166966209827
  },
  {
    "name": "Lake Town Police Station",
    "lat": 22.61117906069684,
    "lng": 88.40472567767054
  },
  {
    "name": "Eco Park Police Station",
    "lat": 22.601855980715946,
    "lng": 88.46760267353899
  },
  {
    "name": "Bidhannagar Traffic Control Room",
    "lat": 22.594565827405898,
    "lng": 88.45455641006129
  },
  {
    "name": "Bidhannagar South Police Station",
    "lat": 22.577131286996803,
    "lng": 88.4133576832896
  },
  {
    "name": "Cyber Crime Police Station",
    "lat": 22.59998720475525,
    "lng": 88.4150556252278
  },
  {
    "name": "Baguiati Police Station",
    "lat": 22.631495492648543,
    "lng": 88.42615911604467
  },
  {
    "name": "West Bengal Police Booth",
    "lat": 22.58479991107176,
    "lng": 88.41299942322466
  },
  {
    "name": "Electronics Complex Police Station",
    "lat": 22.58479991107176,
    "lng": 88.43068276045157
  },
  {
    "name": "Kolkata Traffic Police",
    "lat": 22.594671842513403,
    "lng": 88.42204671203844
  },
  {
    "name": "Bidhannagar Police Commissionerate",
    "lat": 22.57796508250475,
    "lng": 88.41176570202278
  },
  {
    "name": "Bidhannagar women police station",
    "lat": 22.587837503809205,
    "lng": 88.42615911604467
  },
  {
    "name": "Chinarpark Traffic Guard Office",
    "lat": 22.631115917688863,
    "lng": 88.44096377046722
  }
]